{"status":200,"response":[{"ID":757,"name":"Central Hospital","imageURL":"\/care-near-you\/southern-california\/sandiego\/wp-content\/uploads\/sites\/4\/2014\/02\/Central-SD-Hospital-2017.png","imageAlt":"","address":"5201 Ruffin Road ","city":"San Diego","state":"CA","zip":"92123","phone":"","note":"Coming in 2017","latitude":"32.830039","longitude":"-117.12668","moreinfo":{"url":"\/care-near-you\/southern-california\/sandiego\/locations\/central-hospital\/","title":"More Info","target":""},"direction":{"url":"https:\/\/healthy.kaiserpermanente.org\/kpweb\/facilitydir\/map.do?link=tripplus&amp;static_destination=1&amp;destcity=San%20Diego&amp;deststateProvince=CA&amp;destaddress=5201%20Ruffin%20Road%20&amp;rop=SCA","title":"Get Directions","target":" target='_blank'"},"distance":11.054033726367,"type":["h"]},{"ID":72,"name":"Palomar Health Downtown Campus**","imageURL":"\/care-near-you\/southern-california\/sandiego\/wp-content\/uploads\/sites\/4\/2013\/10\/palomar_health_downtown_campus.jpg","imageAlt":"","address":"555 E. Valley Parkway","city":"Escondido","state":"CA","zip":"92025","phone":"760-739-3000","note":"","latitude":"33.126022","longitude":"-117.076115","moreinfo":{"url":"\/care-near-you\/southern-california\/sandiego\/locations\/palomar-health-downtown-campus\/","title":"More Info","target":""},"direction":{"url":"https:\/\/healthy.kaiserpermanente.org\/kpweb\/facilitydir\/map.do?link=tripplus&amp;static_destination=1&amp;destcity=Escondido&amp;deststateProvince=CA&amp;destaddress=555%20E.%20Valley%20Parkway&amp;rop=SCA","title":"Get Directions","target":" target='_blank'"},"distance":26.81930028236,"type":["h","m"]},{"ID":68,"name":"Palomar Medical Center**","imageURL":"\/care-near-you\/southern-california\/sandiego\/wp-content\/uploads\/sites\/4\/2013\/10\/palomar_medical_center.jpg","imageAlt":"","address":"2185 Citracado Parkway","city":"Escondido","state":"CA","zip":"92029","phone":"442-281-5000","note":"","latitude":"33.121414","longitude":"-117.119726","moreinfo":{"url":"\/care-near-you\/southern-california\/sandiego\/locations\/palomar-medical-center\/","title":"More Info","target":""},"direction":{"url":"https:\/\/healthy.kaiserpermanente.org\/kpweb\/facilitydir\/map.do?link=tripplus&amp;static_destination=1&amp;destcity=Escondido&amp;deststateProvince=CA&amp;destaddress=2185%20Citracado%20Parkway&amp;rop=SCA","title":"Get Directions","target":" target='_blank'"},"distance":27.252394008748,"type":["h","m"]},{"ID":64,"name":"San Diego Medical Center","imageURL":"\/care-near-you\/southern-california\/sandiego\/wp-content\/uploads\/sites\/4\/2013\/10\/san_diego_medical_center.jpg","imageAlt":"","address":"4647 Zion Avenue","city":"San Diego","state":"CA","zip":"92120","phone":"619-528-5000","note":"","latitude":"32.792969","longitude":"-117.094905","moreinfo":{"url":"\/care-near-you\/southern-california\/sandiego\/locations\/san-diego-medical-center\/","title":"More Info","target":""},"direction":{"url":"https:\/\/healthy.kaiserpermanente.org\/kpweb\/facilitydir\/map.do?link=tripplus&amp;static_destination=1&amp;destcity=San%20Diego&amp;deststateProvince=CA&amp;destaddress=4647%20Zion%20Avenue&amp;rop=SCA","title":"Get Directions","target":" target='_blank'"},"distance":8.2761832583747,"type":["h","m","p"]},{"ID":75,"name":"Blood Donor Center","imageURL":"","imageAlt":"","address":"6511 Mission Gorge Road","city":"San Diego","state":"CA","zip":"92120","phone":"619-528-6555","note":"","latitude":"32.791198","longitude":"-117.097755","direction":{"url":"https:\/\/healthy.kaiserpermanente.org\/kpweb\/facilitydir\/map.do?link=tripplus&amp;static_destination=1&amp;destcity=San%20Diego&amp;deststateProvince=CA&amp;destaddress=6511%20Mission%20Gorge%20Road&amp;rop=SCA","title":"Get Directions","target":" target='_blank'"},"distance":8.3884714452091,"type":["m","l"]},{"ID":76,"name":"Bonita Medical Offices","imageURL":"","imageAlt":"","address":"3955 Bonita Road","city":"Bonita","state":"CA","zip":"91902","phone":"","note":"","latitude":"32.6576","longitude":"-117.04154","direction":{"url":"https:\/\/healthy.kaiserpermanente.org\/kpweb\/facilitydir\/map.do?link=tripplus&amp;static_destination=1&amp;destcity=Bonita&amp;deststateProvince=CA&amp;destaddress=3955%20Bonita%20Road&amp;rop=SCA","title":"Get Directions","target":" target='_blank'"},"distance":7.8742551008758,"type":["m","p","v"]},{"ID":77,"name":"Bostonia Medical Offices","imageURL":"\/care-near-you\/southern-california\/sandiego\/wp-content\/uploads\/sites\/4\/2014\/04\/onmoverheum.jpg","imageAlt":"","address":"1630 E. Main St.","city":"El Cajon","state":"CA","zip":"92021","phone":"","note":"","latitude":"32.807804","longitude":"-116.922066","direction":{"url":"https:\/\/healthy.kaiserpermanente.org\/kpweb\/facilitydir\/map.do?link=tripplus&amp;static_destination=1&amp;destcity=El%20Cajon&amp;deststateProvince=CA&amp;destaddress=1630%20E.%20Main%20St.&amp;rop=SCA","title":"Get Directions","target":" target='_blank'"},"distance":4.6276455889364,"type":["m","p"]},{"ID":78,"name":"Carlsbad Medical Offices","imageURL":"","imageAlt":"","address":"6860 Avenida Encinas","city":"Carlsbad","state":"CA","zip":"92011","phone":"","note":"","latitude":"33.10737","longitude":"-117.31466","direction":{"url":"https:\/\/healthy.kaiserpermanente.org\/kpweb\/facilitydir\/map.do?link=tripplus&amp;static_destination=1&amp;destcity=Carlsbad&amp;deststateProvince=CA&amp;destaddress=6860%20Avenida%20Encinas&amp;rop=SCA","title":"Get Directions","target":" target='_blank'"},"distance":32.068915124788,"type":["m","p","v"]},{"ID":79,"name":"Carmel Valley Medical Offices","imageURL":"","imageAlt":"","address":"3851 Shaw Ridge Road","city":"San Diego","state":"CA","zip":"92130","phone":"","note":"","latitude":"32.935085","longitude":"-117.230286","direction":{"url":"https:\/\/healthy.kaiserpermanente.org\/kpweb\/facilitydir\/map.do?link=tripplus&amp;static_destination=1&amp;destcity=San%20Diego&amp;deststateProvince=CA&amp;destaddress=3851%20Shaw%20Ridge%20Road&amp;rop=SCA","title":"Get Directions","target":" target='_blank'"},"distance":20.157657489129,"type":["m"]},{"ID":80,"name":"Clairemont Mesa Medical Offices","imageURL":"","imageAlt":"","address":"7060 Clairemont Mesa Blvd.","city":"San Diego","state":"CA","zip":"92111","phone":"","note":"","latitude":"32.832659","longitude":"-117.16455","direction":{"url":"https:\/\/healthy.kaiserpermanente.org\/kpweb\/facilitydir\/map.do?link=tripplus&amp;static_destination=1&amp;destcity=San%20Diego&amp;deststateProvince=CA&amp;destaddress=7060%20Clairemont%20Mesa%20Blvd.&amp;rop=SCA","title":"Get Directions","target":" target='_blank'"},"distance":13.082131275291,"type":["m","p","v"]},{"ID":81,"name":"El Cajon Medical Offices","imageURL":"","imageAlt":"","address":"250 Travelodge Drive","city":"El Cajon","state":"CA","zip":"92020","phone":"","note":"","latitude":"32.79311","longitude":"-116.98025","direction":{"url":"https:\/\/healthy.kaiserpermanente.org\/kpweb\/facilitydir\/map.do?link=tripplus&amp;static_destination=1&amp;destcity=El%20Cajon&amp;deststateProvince=CA&amp;destaddress=250%20Travelodge%20Drive&amp;rop=SCA","title":"Get Directions","target":" target='_blank'"},"distance":3.1718094057176,"type":["m","p","v"]},{"ID":82,"name":"Escondido Medical Offices","imageURL":"","imageAlt":"","address":"732 N. Broadway","city":"Escondido","state":"CA","zip":"92025","phone":"","note":"","latitude":"33.12991","longitude":"-117.08515","direction":{"url":"https:\/\/healthy.kaiserpermanente.org\/kpweb\/facilitydir\/map.do?link=tripplus&amp;static_destination=1&amp;destcity=Escondido&amp;deststateProvince=CA&amp;destaddress=732%20N.%20Broadway&amp;rop=SCA","title":"Get Directions","target":" target='_blank'"},"distance":27.212416877,"type":["m","p","v"]},{"ID":83,"name":"Garfield Specialty Center","imageURL":"","imageAlt":"","address":"5893 Copley Drive","city":"San Diego","state":"CA","zip":"92111","phone":"","note":"","latitude":"32.843138","longitude":"-117.172781","direction":{"url":"https:\/\/healthy.kaiserpermanente.org\/kpweb\/facilitydir\/map.do?link=tripplus&amp;static_destination=1&amp;destcity=San%20Diego&amp;deststateProvince=CA&amp;destaddress=5893%20Copley%20Drive&amp;rop=SCA","title":"Get Directions","target":" target='_blank'"},"distance":13.835116213951,"type":["m","p"]},{"ID":87,"name":"Kearny Mesa Rehabilitation Center","imageURL":"","imageAlt":"","address":"4510 Viewridge Ave","city":"San Diego","state":"CA","zip":"92123","phone":"","note":"","latitude":"32.82259","longitude":"-117.12495","direction":{"url":"https:\/\/healthy.kaiserpermanente.org\/kpweb\/facilitydir\/map.do?link=tripplus&amp;static_destination=1&amp;destcity=San%20Diego&amp;deststateProvince=CA&amp;destaddress=4510%20Viewridge%20Ave&amp;rop=SCA","title":"Get Directions","target":" target='_blank'"},"distance":10.716756619691,"type":["m"]},{"ID":88,"name":"La Mesa Medical Offices","imageURL":"","imageAlt":"","address":"8080 Parkway Drive","city":"La Mesa","state":"CA","zip":"91942","phone":"","note":"","latitude":"32.775452","longitude":"-117.023318","direction":{"url":"https:\/\/healthy.kaiserpermanente.org\/kpweb\/facilitydir\/map.do?link=tripplus&amp;static_destination=1&amp;destcity=La%20Mesa&amp;deststateProvince=CA&amp;destaddress=8080%20Parkway%20Drive&amp;rop=SCA","title":"Get Directions","target":" target='_blank'"},"distance":3.977979393087,"type":["m","p","v"]},{"ID":92,"name":"Oceanside Medical Offices","imageURL":"","imageAlt":"","address":"1302 Rocky Point Drive ","city":"Oceanside","state":"CA","zip":"92056","phone":"","note":"New Expanded Facility Now Open to Members","latitude":"33.214833","longitude":"-117.291219","direction":{"url":"https:\/\/healthy.kaiserpermanente.org\/kpweb\/facilitydir\/map.do?link=tripplus&amp;static_destination=1&amp;destcity=Oceanside&amp;deststateProvince=CA&amp;destaddress=1302%20Rocky%20Point%20Drive%20&amp;rop=SCA","title":"Get Directions","target":" target='_blank'"},"distance":37.364964199028,"type":["m","p"]},{"ID":93,"name":"Otay Mesa Medical Offices","imageURL":"","imageAlt":"","address":"4650 and 4660 Palm Ave.","city":"San Diego","state":"CA","zip":"92154","phone":"800-290-5000","note":"","latitude":"32.583869","longitude":"-117.03403","direction":{"url":"https:\/\/healthy.kaiserpermanente.org\/kpweb\/facilitydir\/map.do?link=tripplus&amp;static_destination=1&amp;destcity=San%20Diego&amp;deststateProvince=CA&amp;destaddress=4650%20and%204660%20Palm%20Ave.&amp;rop=SCA","title":"Get Directions","target":" target='_blank'"},"distance":12.208634081541,"type":["m","p","v"]},{"ID":94,"name":"Point Loma Medical Offices","imageURL":"","imageAlt":"","address":"3250 Fordham St.","city":"San Diego","state":"CA","zip":"92110","phone":"","note":"","latitude":"32.75018","longitude":"-117.21425","direction":{"url":"https:\/\/healthy.kaiserpermanente.org\/kpweb\/facilitydir\/map.do?link=tripplus&amp;static_destination=1&amp;destcity=San%20Diego&amp;deststateProvince=CA&amp;destaddress=3250%20Fordham%20St.&amp;rop=SCA","title":"Get Directions","target":" target='_blank'"},"distance":14.657949556009,"type":["m","p"]},{"ID":95,"name":"Positive Choice Wellness Center","imageURL":"","imageAlt":"","address":"7035 Convoy Court","city":"San Diego","state":"CA","zip":"92111","phone":"","note":"","latitude":"32.83466","longitude":"-117.16496","direction":{"url":"https:\/\/healthy.kaiserpermanente.org\/kpweb\/facilitydir\/map.do?link=tripplus&amp;static_destination=1&amp;destcity=San%20Diego&amp;deststateProvince=CA&amp;destaddress=7035%20Convoy%20Court&amp;rop=SCA","title":"Get Directions","target":" target='_blank'"},"distance":13.164385405062,"type":["m"]},{"ID":84,"name":"Rancho Bernardo Medical Offices","imageURL":"","imageAlt":"","address":"17140 Bernardo Center Drive","city":"San Diego","state":"CA","zip":"92128","phone":"","note":"","latitude":"33.025782","longitude":"-117.074641","direction":{"url":"https:\/\/healthy.kaiserpermanente.org\/kpweb\/facilitydir\/map.do?link=tripplus&amp;static_destination=1&amp;destcity=San%20Diego&amp;deststateProvince=CA&amp;destaddress=17140%20Bernardo%20Center%20Drive&amp;rop=SCA","title":"Get Directions","target":" target='_blank'"},"distance":20.153649242018,"type":["m","p"]},{"ID":85,"name":"Rancho San Diego Medical Offices","imageURL":"","imageAlt":"","address":"3875 Avocado Blvd.","city":"La Mesa","state":"CA","zip":"91941","phone":"","note":"","latitude":"32.749844","longitude":"-116.961994","direction":{"url":"https:\/\/healthy.kaiserpermanente.org\/kpweb\/facilitydir\/map.do?link=tripplus&amp;static_destination=1&amp;destcity=La%20Mesa&amp;deststateProvince=CA&amp;destaddress=3875%20Avocado%20Blvd.&amp;rop=SCA","title":"Get Directions","target":" target='_blank'"},"distance":0,"type":["m","p"]},{"ID":86,"name":"San Diego Mission Road","imageURL":"","imageAlt":"","address":"10990 San Diego Mission Road","city":"San Diego","state":"CA","zip":"92108","phone":"","note":"","latitude":"32.78502","longitude":"-117.10212","direction":{"url":"https:\/\/healthy.kaiserpermanente.org\/kpweb\/facilitydir\/map.do?link=tripplus&amp;static_destination=1&amp;destcity=San%20Diego&amp;deststateProvince=CA&amp;destaddress=10990%20San%20Diego%20Mission%20Road&amp;rop=SCA","title":"Get Directions","target":" target='_blank'"},"distance":8.4957867308924,"type":["m"]},{"ID":96,"name":"San Marcos Medical Offices","imageURL":"","imageAlt":"","address":"400 Craven Rd.","city":"San Marcos","state":"CA","zip":"92078","phone":"800-290-5000","note":"","latitude":"33.127445","longitude":"-117.16889","direction":{"url":"https:\/\/healthy.kaiserpermanente.org\/kpweb\/facilitydir\/map.do?link=tripplus&amp;static_destination=1&amp;destcity=San%20Marcos&amp;deststateProvince=CA&amp;destaddress=400%20Craven%20Rd.&amp;rop=SCA","title":"Get Directions","target":" target='_blank'"},"distance":28.71456101784,"type":["m","p"]},{"ID":97,"name":"Scripps Medical Office**","imageURL":"","imageAlt":"","address":"HM Poole Building<br \/>9834 Genesee Ave., Suite 114","city":"San Diego","state":"CA","zip":"92037","phone":"","note":"","latitude":"32.881416","longitude":"-117.219001","direction":{"url":"https:\/\/healthy.kaiserpermanente.org\/kpweb\/facilitydir\/map.do?link=tripplus&amp;static_destination=1&amp;destcity=San%20Diego&amp;deststateProvince=CA&amp;destaddress=HM%20Poole%20Building%3Cbr%20%2F%3E9834%20Genesee%20Ave.%2C%20Suite%20114&amp;rop=SCA","title":"Get Directions","target":" target='_blank'"},"distance":17.473668276439,"type":["m"]},{"ID":98,"name":"Vandever Medical Offices","imageURL":"","imageAlt":"","address":"4405 Vandever Ave","city":"San Diego","state":"CA","zip":"92120","phone":"","note":"","latitude":"32.787714","longitude":"-117.099659","direction":{"url":"https:\/\/healthy.kaiserpermanente.org\/kpweb\/facilitydir\/map.do?link=tripplus&amp;static_destination=1&amp;destcity=San%20Diego&amp;deststateProvince=CA&amp;destaddress=4405%20Vandever%20Ave&amp;rop=SCA","title":"Get Directions","target":" target='_blank'"},"distance":8.4147728675367,"type":["m","p","v"]},{"ID":99,"name":"Vista Medical Offices","imageURL":"","imageAlt":"","address":"780 Shadowridge Drive","city":"Vista","state":"CA","zip":"92083","phone":"","note":"","latitude":"33.166316","longitude":"-117.221276","direction":{"url":"https:\/\/healthy.kaiserpermanente.org\/kpweb\/facilitydir\/map.do?link=tripplus&amp;static_destination=1&amp;destcity=Vista&amp;deststateProvince=CA&amp;destaddress=780%20Shadowridge%20Drive&amp;rop=SCA","title":"Get Directions","target":" target='_blank'"},"distance":32.463390754113,"type":["m","p","v"]},{"ID":1383,"name":"San Diego Mission Valley Target","imageURL":"","imageAlt":"","address":"1288 Camino Del Rio N.","city":"San Diego","state":"CA","zip":"92108","phone":"","note":"","latitude":"32.767052","longitude":"-117.148576","direction":{"url":"https:\/\/healthy.kaiserpermanente.org\/kpweb\/facilitydir\/map.do?link=tripplus&amp;static_destination=1&amp;destcity=San%20Diego&amp;deststateProvince=CA&amp;destaddress=1288%20Camino%20Del%20Rio%20N.&amp;rop=SCA","title":"Get Directions","target":" target='_blank'"},"distance":10.905760539183,"type":["r"]},{"ID":1386,"name":"Vista Target","imageURL":"","imageAlt":"","address":"1751 University Drive","city":"Vista","state":"CA","zip":"92083","phone":"","note":"","latitude":"33.170411","longitude":"-117.214798","direction":{"url":"https:\/\/healthy.kaiserpermanente.org\/kpweb\/facilitydir\/map.do?link=tripplus&amp;static_destination=1&amp;destcity=Vista&amp;deststateProvince=CA&amp;destaddress=1751%20University%20Drive&amp;rop=SCA","title":"Get Directions","target":" target='_blank'"},"distance":32.54343720738,"type":["r"]}]}